id,spot_name,spot_address,lat,lon,spot_info
1,빅히트엔터테인먼트,서울 강남구 대치동 1003,37.50685318,127.0662494,http://place.map.kakao.com/14825756
2,정서진광장,인천 서구 오류동 1587,37.55742221,126.6055631,http://place.map.kakao.com/17211332
3,일산호수,경기 고양시 일산동구 장항동 906,37.65578655,126.764188,http://place.map.kakao.com/11737385
4,다람쥐마을 누룽지백숙,경기 고양시 일산동구 풍동 665-3,37.67324441,126.789188,http://place.map.kakao.com/26624324
5,양주 일영역,경기 양주시 장흥면 일영로647번길 25,37.70032121,126.929023,https://place.map.kakao.com/8060698
6,AD646,경기 가평군 가평읍 승안리 646,37.86196225,127.4695655,http://place.map.kakao.com/1549971222
7,제이드가든수목원,강원 춘천시 남산면 서천리 산 111,37.83112831,127.5433139,http://place.map.kakao.com/11209011
8,예인,강원 춘천시 남산면 강촌리 산 88-1,37.81614942,127.6324418,http://place.map.kakao.com/10628365
9,소양강댐 물문화관,강원 춘천시 신북읍 천전리 산 73-6,37.94878943,127.815066,http://place.map.kakao.com/25046309
10,어스17,강원 춘천시 신북읍 천전리 34-5,37.93276406,127.7939642,http://place.map.kakao.com/26773415
11,달아실미술관,강원 춘천시 동면 월곡리 246-1,37.92093884,127.8063835,http://place.map.kakao.com/131567843
12,낙산파크랜드,강원 양양군 강현면 전진리 9-1,38.12009241,128.6304634,http://place.map.kakao.com/23046997
13,주문진해변,강원 강릉시 주문진읍 향호리 8-35,37.91111952,128.8187802,http://place.map.kakao.com/8073114
14,정동심곡 바다부채길,강원 강릉시 강동면 심곡리 114-3,37.66615654,129.0542474,http://place.map.kakao.com/1364332900
15,팔미도유람선,인천 중구 항동7가 60-1,37.45555328,126.6017677,http://place.map.kakao.com/27151579
16,상암문화광장,서울 마포구 상암동 1604,37.58041892,126.8912675,http://place.map.kakao.com/27103887
17,하늘공원 탐방객안내소,서울 마포구 상암동 481-72,37.56908693,126.8862944,http://place.map.kakao.com/18093059
18,인왕중학교,서울 서대문구 홍제동 9-27,37.59272346,126.9517777,http://place.map.kakao.com/14979451
19,북악스카이웨이,서울 종로구 평창동 산 6-94,37.60085082,126.9770843,http://place.map.kakao.com/7904649
20,서울시립미술관 북서울미술관,서울 노원구 중계동 508,37.64085963,127.066758,http://place.map.kakao.com/21748070
21,경춘선 숲길,서울 노원구 공릉동 706,37.6304566,127.0721033,https://place.map.kakao.com/1003027186
22,구하우스,경기 양평군 서종면 문호리 779-5,37.60300827,127.3511914,http://place.map.kakao.com/1200720964
23,서후리숲,경기 양평군 서종면 서후리 산 113-12,37.56631817,127.430161,http://place.map.kakao.com/11440866
24,윤동주문학관,서울 종로구 청운동 3-100,37.59213047,126.9671183,http://place.map.kakao.com/12765701
25,1943 성신여대점,서울 성북구 동선동1가 99,37.59269593,127.0178314,http://place.map.kakao.com/511835477
26,브이센터,서울 강동구 고덕동 402-6,37.56536239,127.1477289,http://place.map.kakao.com/26599425
27,올리브영 홍대중앙점,서울 마포구 서교동 363-17,37.55108573,126.9214657,http://place.map.kakao.com/1362401882
28,영광빌라,서울 마포구 연남동 241-1,37.56580847,126.9235238,http://place.map.kakao.com/1099623943
29,그레인,서울 마포구 연남동 385-6,37.56234305,126.9260684,http://place.map.kakao.com/1450314310
30,아이존팝 신촌점,서울 서대문구 창천동 41-21,37.55814741,126.9375079,http://place.map.kakao.com/1340516006
31,대오서점,서울 종로구 누하동 33,37.57974782,126.9693065,http://place.map.kakao.com/18454377
32,대선칼국수,서울 종로구 통의동 35-42,37.57719341,126.9726358,http://place.map.kakao.com/27599711
33,롯데백화점 본점,서울 중구 을지로1가 140-1,37.56518672,126.9817994,http://place.map.kakao.com/7858517
34,주한영국대사관,서울 중구 정동 4,37.56690459,126.9750754,http://place.map.kakao.com/10797680
35,덕수궁,서울 중구 정동 5-1,37.56556387,126.9748948,http://place.map.kakao.com/10305191
36,금돼지식당,서울 중구 신당동 370-69,37.55706416,127.0116888,http://place.map.kakao.com/1065693087
37,한국의집,서울 중구 필동2가 80-2,37.56019288,126.9946896,http://place.map.kakao.com/13050574
38,필용이닭갈비 본점,서울 중구 신당동 368-1,37.55416305,127.0105521,http://place.map.kakao.com/16035280
39,남산공원,서울 중구 예장동 산 5-6,37.552498,126.9893169,http://place.map.kakao.com/8246129
40,매봉산,서울 성동구 옥수동 5-99,37.54443612,127.0073144,http://place.map.kakao.com/10347208
41,우카밥상,서울 용산구 용산동2가 26-9,37.54350588,126.987829,http://place.map.kakao.com/671632159
42,열봉부엌,서울 용산구 원효로1가 43-26,37.5392678,126.9692382,http://place.map.kakao.com/1744333427
43,제니타스인베스트먼트,서울 용산구 이태원동 126-3,37.53440995,126.9961713,http://place.map.kakao.com/2094386196
44,갤러리까비넷,서울 성동구 성수동1가 127-1,37.53903921,127.046495,http://place.map.kakao.com/1195615927
45,한남신성미소시티아파트,서울 용산구 한남동 96-3,37.53151939,127.0071186,http://place.map.kakao.com/12790114
46,멜로워 성수플래그쉽,서울 성동구 성수동2가 333-94,37.54251422,127.0532321,http://place.map.kakao.com/1842536906
47,CU 서울숲공원1호점,서울 성동구 성수동1가 685-20,37.54307023,127.041831,http://place.map.kakao.com/194525500
48,잠수교,서울 용산구 서빙고동 287-2,37.51874688,126.9947649,http://place.map.kakao.com/26964987
49,성수연방,서울 성동구 성수동2가 322-4,37.54139705,127.0569585,http://place.map.kakao.com/1819728691
50,육영재단 어린이회관,서울 광진구 능동 18-11,37.54723952,127.0782961,http://place.map.kakao.com/17807399
51,이마트24 R동작대교구름점,서울 서초구 반포동 1333-1,37.50576372,126.9810853,http://place.map.kakao.com/1699666933
52,CNP차앤박피부과 건대입구점,서울 광진구 화양동 6-2,37.54050156,127.0701625,http://place.map.kakao.com/18561385
53,반포한강시민공원,서울 서초구 반포2동 115-5,37.50970079,126.9946298,http://place.map.kakao.com/8142957
54,듀자미,서울 강남구 신사동 535-9,37.5193431,127.0226011,http://place.map.kakao.com/12983903
55,유정식당,서울 강남구 논현동 8-8,37.5183364,127.0280938,http://place.map.kakao.com/16037952
56,난장캠프 가로수길점,서울 강남구 신사동 519-26,37.51949838,127.0208863,http://place.map.kakao.com/22401099
57,도산족발&종로할머니칼국수,서울 강남구 신사동 651-20,37.5230364,127.0366161,http://place.map.kakao.com/1413345315
58,홈수끼 학동점,서울 강남구 논현동 115-1,37.51622959,127.0357214,http://place.map.kakao.com/2079150406
59,계식당,서울 강남구 신사동 642-8,37.52659441,127.0367491,http://place.map.kakao.com/279813761
60,우돈청,서울 강남구 언주로170길 37,37.52661442,127.0367379,https://place.map.kakao.com/17731989
61,육미학,서울 강남구 청담동 2-6,37.52290628,127.0405166,http://place.map.kakao.com/398471813
62,에이바이봄 1호점,서울 강남구 청담동 91-3,37.52421043,127.0419562,http://place.map.kakao.com/12795977
63,신사빌딩,서울 강남구 신사동 663-7,37.5265471,127.0382197,http://place.map.kakao.com/23993551
64,스코파더쉐프,서울 강남구 청담동 123-53,37.52553325,127.0507538,http://place.map.kakao.com/26609912
65,갯벌의진주 본점,서울 강남구 논현동 163-13,37.50811632,127.023964,http://place.map.kakao.com/10124824
66,잔비워,서울 강남구 청담동 123-37,37.5257098,127.0508716,http://place.map.kakao.com/17106750
67,현대자동차 신사대리점,서울 강남구 논현동 201-8,37.50527589,127.0261301,http://place.map.kakao.com/1086331749
68,KB국민은행 강남파이낸스종합금융센터,서울 강남구 역삼동 737,37.5000689,127.0366004,http://place.map.kakao.com/8198594
69,우기식당 바다점,서울 강남구 논현동 164,37.5086427,127.022987,http://place.map.kakao.com/1286120153
70,유명국양평해장국,서울 서초구 잠원동 13-3,37.51653626,127.0186639,http://place.map.kakao.com/9957512
71,런드리피자,서울 강남구 역삼동 810-13,37.50342083,127.0264331,http://place.map.kakao.com/27503784
72,다독인더시티,서울 강남구 역삼동 608-23,37.5045819,127.0340647,http://place.map.kakao.com/1951343458
73,한강공원 잠실4주차장,서울 송파구 잠실동 1-1,37.51796418,127.0783265,http://place.map.kakao.com/1735040605
74,잠실종합운동장,서울 송파구 잠실동 10-1,37.51459062,127.0730249,http://place.map.kakao.com/8530688
75,롯데월드,서울 송파구 잠실동 40-1,37.51132166,127.098068,http://place.map.kakao.com/27560699
76,명문빌딩,서울 강남구 도곡동 946-24,37.488346,127.033216,http://place.map.kakao.com/14971824
77,오쓰세이로무시,서울 송파구 송파동 56-2,37.51042595,127.1084952,http://place.map.kakao.com/1657233140
78,올림픽공원,서울 송파구 방이동 88-3,37.52053406,127.1208128,http://place.map.kakao.com/8023565
79,함경도찹쌀순대,서울 송파구 가락동 79-7,37.49473239,127.121314,http://place.map.kakao.com/26971014
80,교보문고 서울대점,서울 관악구 신림동 산 56-1,37.45936204,126.9505727,http://place.map.kakao.com/11621793
81,호암미술관,경기 용인시 처인구 포곡읍 가실리 204,37.29454414,127.1916289,http://place.map.kakao.com/8156072
82,그집 양재본점,서울 서초구 양재동 8-55,37.48367361,127.0383743,http://place.map.kakao.com/24878447
83,수섬,경기 화성시 송산면 독지리,37.26423399,126.7052315,http://place.map.kakao.com/7970949
84,형도,경기 화성시 송산면 서달리길 237,37.27520521,126.6710615,https://place.map.kakao.com/10986306
85,뮤지엄 산,강원도 원주시 지정면 오크밸리2길 260,37.41532774,127.8234698,https://place.map.kakao.com/21674777
86,길치근린공원,대전 대덕구 비래동 산 28-6,36.35770009,127.4596778,http://place.map.kakao.com/11332922
87,뮤지엄산,강원 원주시 지정면 월송리 999-13,37.41534614,127.823713,http://place.map.kakao.com/21674777
88,한국농어촌공사 새만금홍보관,전북 부안군 변산면 대항리 141,35.69737168,126.5584926,http://place.map.kakao.com/26120482
89,이마트 천안터미널점,충남 천안시 동남구 신부동 356-3,36.81947873,127.1560562,http://place.map.kakao.com/26842497
90,새만금 간척지(새만금방조제),전북 군산시 비응도동 123,35.91320982,126.524215,https://place.map.kakao.com/7936681
91,아원고택,전북 완주군 소양면 대흥리 356,35.90351768,127.2446211,http://place.map.kakao.com/103288568
92,황리단길,경북 경주시 황남동 270-10,35.83933482,129.2096454,http://place.map.kakao.com/627627078
93,첨성대 매표소,경북 경주시 인왕동 839-1,35.83476848,129.2190216,http://place.map.kakao.com/18716784
94,달성공원 동물원,대구 중구 달성동 294-1,35.87341128,128.5771693,http://place.map.kakao.com/13127850
95,월정교,경북 경주시 교동 274,35.82935383,129.2181095,http://place.map.kakao.com/1839209698
96,카페사바하,경북 경주시 교동 57-16,35.82999613,129.216897,http://place.map.kakao.com/278202660
97,담양총무정,전남 담양군 담양읍 객사리 2-6,35.32340295,126.9896621,http://place.map.kakao.com/10261443
98,담양대나무축제,전남 담양군 담양읍 향교리 282,35.32565239,126.9866263,http://place.map.kakao.com/10258359
99,경주 보문정,경북 경주시 신평동 150-1,35.84096034,129.2896007,https://place.map.kakao.com/11943719
100,한국대중음악박물관,경북 경주시 신평동 220-6,35.83998646,129.2895461,http://place.map.kakao.com/26597473
101,불국사,경북 경주시 진현동 15-1,35.78988218,129.3318914,http://place.map.kakao.com/12760573
102,경주보문관광단지,경북 경주시 신평동 375,35.84278443,129.2864572,http://place.map.kakao.com/10170779
103,순천만습지,전남 순천시 대대동 162-2,34.88561199,127.509555,http://place.map.kakao.com/1191246407
104,순천만국가정원,전남 순천시 오천동 600,34.92921833,127.4989016,http://place.map.kakao.com/25052480
105,영양교육체험관,부산 금정구 회동동 435-6,35.23014813,129.1205894,http://place.map.kakao.com/1057031066
106,용산전망대,전남 순천시 해룡면 농주리 476-1,34.87303073,127.5192772,http://place.map.kakao.com/27061463
107,동래여자고등학교,부산 금정구 구서동 67,35.24639794,129.096367,http://place.map.kakao.com/7841160
108,갑순네돌산갓김치,전남 여수시 돌산읍 율림리 9-15,34.59385892,127.8030565,http://place.map.kakao.com/21276794
109,콘피오,부산 부산진구 연지동 38-31,35.17198029,129.0577498,http://place.map.kakao.com/379284693
110,동래밀면 본점,부산 동래구 수안동 9-33,35.1983246,129.0842004,http://place.map.kakao.com/12519573
111,부산시민공원,부산 부산진구 연지동 111,35.1683563,129.0574038,http://place.map.kakao.com/11585715
112,콘피오,부산 부산진구 연지동 38-31,35.17198029,129.0577498,http://place.map.kakao.com/379284693
113,곱창쌀롱,부산 부산진구 연지동 177-29,35.17086766,129.0502413,http://place.map.kakao.com/1512292945
114,부산시립미술관,부산 해운대구 우동 1127-61,35.16667489,129.1370029,http://place.map.kakao.com/7900239
115,생각하는정원 점심힐링뷔페,제주특별자치도 제주시 한경면 저지리 1525-3,33.3255925,126.2550019,http://place.map.kakao.com/17558202
116,동원주유소,부산 사하구 구평동 480-7,35.05418904,128.9952765,http://place.map.kakao.com/1486701281
117,천지연폭포,제주특별자치도 서귀포시 서홍동 2565,33.24720872,126.5545245,http://place.map.kakao.com/8100102
118,유리네,제주특별자치도 제주시 연동 427-1,33.48146941,126.4970111,http://place.map.kakao.com/10678894
119,안돌오름,제주특별자치도 제주시 구좌읍 송당리 산 66-2,33.45784849,126.7558205,http://place.map.kakao.com/8428406
120,카멜리아힐,제주특별자치도 서귀포시 안덕면 상창리 271,33.28963443,126.3700095,http://place.map.kakao.com/9461977
121,올레길 1-1코스(우도-올레),제주특별자치도 제주시 우도면 연평리,33.49836542,126.9479017,http://place.map.kakao.com/12753592
122,환상숲곶자왈공원,제주특별자치도 제주시 한경면 저지리 2848-2,33.32290672,126.2630279,http://place.map.kakao.com/19763694
123,본태박물관,제주특별자치도 서귀포시 안덕면 상천리 380,33.3037709,126.3924797,http://place.map.kakao.com/18539729
124,올레길 16코스(고내-광령 올레),제주특별자치도 제주시 애월읍 고내리 1111-2,33.4664432,126.3897358,http://place.map.kakao.com/11943943
125,GS25 로데오점,서울 강남구 신사동 659-10,37.52752658,127.0379397,http://place.map.kakao.com/17317628
126,제주베스트힐,제주특별자치도 제주시 조천읍 교래리 786-29,33.45408784,126.6574832,http://place.map.kakao.com/26823680
127,공백,제주특별자치도 제주시 구좌읍 동복리 1568-1,33.55339241,126.7150937,http://place.map.kakao.com/132151202
128,SM엔터테인먼트 본사,서울 강남구 삼성동 52-1,37.51808005,127.0510112,http://place.map.kakao.com/26317051
129,브라운돈까스 압구정직영점,서울 강남구 신사동 616-4,37.52821748,127.0324282,http://place.map.kakao.com/27514936
130,메가박스 코엑스,서울 강남구 삼성동 159,37.51307795,127.0582151,http://place.map.kakao.com/7877178
131,용무있습니까 가로수길점,서울 강남구 신사동 503-2,37.51820115,127.0196778,http://place.map.kakao.com/666789912
132,인디에이,서울 용산구 한남동 684-88,37.53519568,127.0008146,http://place.map.kakao.com/26568117
133,설하식당,경기 남양주시 조안면 삼봉리 127-1,37.59839837,127.3326894,http://place.map.kakao.com/635587331
134,용마랜드,서울 중랑구 망우동 산 69-1,37.59479363,127.1054413,http://place.map.kakao.com/1210528477
135,치카치카,서울 성동구 성수동2가 310-64,37.5428601,127.0534813,http://place.map.kakao.com/27347404
136,카몽,서울 서초구 서초동 1678-4,37.49539123,127.0201197,http://place.map.kakao.com/24786161
137,인사동촌,서울 강남구 신사동 515-12,37.5179413,127.0217184,http://place.map.kakao.com/10834771
138,압구정로데오거리,서울 강남구 신사동 668-33,37.52675582,127.039152,http://place.map.kakao.com/7990409
139,미사리밀빛초계국수 건대점,서울 광진구 자양동 794,37.53776168,127.0772701,http://place.map.kakao.com/19175724
140,그랜드 인터컨티넨탈 서울 파르나스,서울 강남구 삼성동 159-8,37.50929241,127.0608362,http://place.map.kakao.com/8161840
141,무자비,서울 용산구 남영동 40-3,37.54445853,126.9732,http://place.map.kakao.com/1985280428
142,오르다,제주특별자치도 서귀포시 성산읍 성산리 308,33.46885806,126.9354016,http://place.map.kakao.com/1820359262
143,서울숲 코오롱디지털타워2차,서울 성동구 성수동2가 333-140,37.54171048,127.0533582,http://place.map.kakao.com/12576562
144,포러데이,경기 남양주시 와부읍 팔당리 774,37.55636323,127.2363675,http://place.map.kakao.com/1950002781
145,스시쿠루미,서울 강남구 청담동 20-30,37.52190816,127.042537,http://place.map.kakao.com/231376647
146,뉴코아아울렛 광명점,경기 광명시 하안동 38,37.46110014,126.8792919,http://place.map.kakao.com/10268599
147,다운타우너 청담,서울 강남구 신사동 666-25,37.52406382,127.0385759,http://place.map.kakao.com/1458885971
148,밥한끼,서울 용산구 한남동 72-17,37.53393762,127.0079199,http://place.map.kakao.com/778385733
149,배키욘방,서울 송파구 방이동 62-3,37.51350032,127.1083367,http://place.map.kakao.com/1574612084
150,산속의곰탕,강원 횡성군 둔내면 자포곡리 395-1,37.51239888,128.2175736,http://place.map.kakao.com/9111355
151,폴콘카페,경기 파주시 월롱면 위전리 435-8,37.7940274,126.7907118,http://place.map.kakao.com/312675900
152,서현실비 청담직영점,서울 강남구 청담동 124-4,37.52475906,127.0491831,http://place.map.kakao.com/960144027
153,스시호시카이,제주특별자치도 제주시 오라이동 959-1,33.48776475,126.517522,http://place.map.kakao.com/23718318
154,양화빗물펌프장,서울 양천구 목동 517-12,37.54636147,126.8802998,http://place.map.kakao.com/8495840
155,플레디스,서울 강남구 삼성동 44-20,37.51217759,127.0488446,http://place.map.kakao.com/25148556
156,베이크하우스,서울 용산구 이태원동 251-63,37.54079234,126.990785,http://place.map.kakao.com/27392427
157,카페발로 2호점,인천 부평구 십정동 231,37.47639419,126.6911141,http://place.map.kakao.com/1602788762
158,어반플랜트,서울 마포구 합정동 363-28,37.54789417,126.9171881,http://place.map.kakao.com/447132083
159,아이헤이트먼데이,서울 마포구 합정동 363-30,37.54771561,126.9169574,http://place.map.kakao.com/13495615
160,잔티코리아 홍대점,서울 마포구 상수동 324-1,37.54754245,126.9219956,http://place.map.kakao.com/18607491
161,에어포트9,서울 용산구 이태원동 74-26,37.53351238,126.9924784,http://place.map.kakao.com/1564944371
162,스튜디오콜린,서울 서대문구 연희동 444-92,37.5699865,126.9251054,http://place.map.kakao.com/1223862484
163,도렐 육지3호점,서울 성동구 성수동2가 314-12,37.54375706,127.0544279,http://place.map.kakao.com/301697712
164,갤러리아포레아파트,서울 성동구 성수동1가 685-696,37.5457838,127.0424798,http://place.map.kakao.com/11506249
165,곱창집 이것이곱창이다,서울 광진구 화양동 9-76,37.54225339,127.0696753,http://place.map.kakao.com/439303076
166,서울윈드서핑장,서울 광진구 자양동 94,37.52709859,127.0809245,http://place.map.kakao.com/1840286237
167,도산분식 가로수길점,서울 강남구 신사동 523-17,37.52067234,127.0211706,http://place.map.kakao.com/834025657
168,하이디라오 강남점,서울 서초구 서초동 1303-37,37.50256595,127.0248082,http://place.map.kakao.com/1372079546
169,알베르,서울 강남구 역삼동 618-11,37.50297967,127.0281197,http://place.map.kakao.com/22837049
170,스피닝울프 성수,서울 성동구 연무장7길 11,37.54378977,127.0544169,https://place.map.kakao.com/1099214853
171,이상한나라의미쓰윤,서울 서초구 양재동 122-6,37.47543499,127.0377279,http://place.map.kakao.com/1171462155
172,지노스피자 압구정점,서울 강남구 신사동 655-3,37.52537935,127.0383639,http://place.map.kakao.com/854487489
173,유하제과 압구정 로데오점,서울 강남구 신사동 657-4,37.52611131,127.0372873,http://place.map.kakao.com/74324406
174,별빛달천도,전남 여수시 중앙동 250,34.7373084,127.7398003,http://place.map.kakao.com/352052007
175,두리캠핑장,경기 여주시 흥천면 상대리 9-25,37.35425221,127.507013,http://place.map.kakao.com/1202688074
176,우돈청,서울 강남구 언주로170길 37,37.52661442,127.0367379,https://place.map.kakao.com/17731989
177,팔미도유람선,인천 중구 항동7가 60-1,37.45555328,126.6017677,http://place.map.kakao.com/27151579
178,돼지슈퍼,서울 마포구 아현동 707,37.55683864,126.9615882,http://place.map.kakao.com/23479958
179,자하문 터널 계단,서울 종로구 부암동 281-11,37.59386291,126.9634896,https://place.map.kakao.com/8059280
180,스카이피자(피자시대),서울 동작구 노량진동 297-1,37.50960484,126.9370372,http://place.map.kakao.com/16445631
181,건국대학교 실내체육관,서울 광진구 화양동 393-1,37.54446343,127.0798162,http://place.map.kakao.com/8645057
182,용인대장금테마파크,경기 용인시 처인구 백암면 용천리 778-1,37.12119169,127.3375794,http://place.map.kakao.com/11344902
183,철길마을,전북 군산시 경암동 636-17,35.98130802,126.7304764,http://place.map.kakao.com/548754302
184,가림성,충남 부여군 임천면 군사리 산 1-1,36.19769029,126.8996377,http://place.map.kakao.com/1696392355
185,청담대교,서울 광진구 자양동 824,37.52628678,127.0648863,http://place.map.kakao.com/15150412
186,구룡마을 대나무숲,전북 익산시 금마면 신용리 541-2,36.01206512,127.0468153,http://place.map.kakao.com/1179597411
187,오라카이 송도파크호텔,인천 연수구 송도동 93-1,37.38812398,126.6407978,http://place.map.kakao.com/19357136
188,울프강스테이크하우스,서울 강남구 청담동 89-6,37.52440163,127.0414224,http://place.map.kakao.com/26572124
189,좋은아침HRD센터,경기 가평군 조종면 상판리 291-2,37.8867832,127.3607288,http://place.map.kakao.com/10612544
190,이마트 김포한강점,경기 김포시 구래동 6880-9,37.64434015,126.6282867,http://place.map.kakao.com/26843025
191,고석정,강원 철원군 동송읍 장흥리 725-13,38.18525345,127.287968,http://place.map.kakao.com/8176583
192,아크레도 청담점,서울 강남구 청담동 78-18,37.5272271,127.0416276,http://place.map.kakao.com/1411312080
193,BBQ 이대점,서울 서대문구 대현동 37-32,37.55803522,126.9437328,http://place.map.kakao.com/1776535258
194,분당엠코헤리츠오피스텔,경기 성남시 분당구 구미동 9-1,37.34960551,127.1083073,http://place.map.kakao.com/16034541
195,포천한탄강하늘다리,경기 포천시 영북면 대회산리 377,38.08398141,127.2192124,http://place.map.kakao.com/680628309
196,모다백화점 부평점,인천 부평구 부평동 70-127,37.49354837,126.7196323,http://place.map.kakao.com/1415241937
197,영림 홈앤리빙 인천갤러리,인천 남동구 고잔동 712-10,37.38726821,126.6885307,http://place.map.kakao.com/451022232
198,비내섬,충북 충주시 소태면 복탄리 908,37.10763245,127.8177259,http://place.map.kakao.com/11495420
199,별마로천문대,강원 영월군 영월읍 영흥리 154-3,37.19830184,128.4868124,http://place.map.kakao.com/15280358
200,선녀바위해수욕장,인천 중구 을왕동 678-188,37.43947594,126.3787082,http://place.map.kakao.com/12644123
201,중앙탑사적공원,충북 충주시 중앙탑면 탑평리 50,37.01821772,127.8662637,http://place.map.kakao.com/17697891
202,서귀포치유의숲,제주특별자치도 서귀포시 호근동 산 4,33.29187796,126.5278831,http://place.map.kakao.com/1766125269
203,주교좌계산대성당,대구 중구 계산동2가 71-1,35.86795788,128.5878135,http://place.map.kakao.com/12760576
204,아홉산숲,부산 기장군 철마면 웅천리 26,35.28692922,129.1714378,http://place.map.kakao.com/27508656
205,담양레이나cc,전남 담양군 담양읍 학동리 산 79,35.31030036,127.0171362,http://place.map.kakao.com/11716668
206,사성암,전남 구례군 문척면 죽마리 산 7-1,35.18012007,127.4806295,http://place.map.kakao.com/11490157
207,옛 한보탄광,강원 태백시 통골길 112,37.164113,129.041834,https://place.map.kakao.com/27544992
208,문산성당,경남 진주시 문산읍 소문리 58-1,35.17203933,128.1686736,http://place.map.kakao.com/9869886
209,삼탄아트마인,강원 정선군 고한읍 고한리 5-26,37.1850172,128.8828628,http://place.map.kakao.com/19881841
210,부전역,부산 부산진구 부전동 280-76,35.16465141,129.0601198,http://place.map.kakao.com/1959151038
211,대전역,대전 동구 정동 1-1,36.33229969,127.4341122,http://place.map.kakao.com/7830504
212,서울역,서울 용산구 동자동 43-205,37.55467884,126.9706069,http://place.map.kakao.com/9113903
213,신탄진역,대전 대덕구 신탄진동 146,36.44968413,127.4285634,http://place.map.kakao.com/10604169
214,한국철도공사 부산철도차량정비단 고속기지,부산 부산진구 당감동 82-2,35.159908,129.0460684,http://place.map.kakao.com/8333468
215,삽교역,충남 예산군 삽교읍 신가리 1-2,36.68029014,126.7516665,http://place.map.kakao.com/11523148
216,동대구역,대구 동구 신암동 294,35.87932399,128.6283938,http://place.map.kakao.com/7842981
217,청주역,충북 청주시 흥덕구 정봉동 182-1,36.64715219,127.3923352,http://place.map.kakao.com/10834444
218,광명역,경기 광명시 일직동 276-8,37.41645134,126.884804,http://place.map.kakao.com/8658728
219,천안아산역,충남 아산시 배방읍 장재리 305,36.79460337,127.1043803,http://place.map.kakao.com/8598201
220,킨텍스,경기 고양시 일산서구 대화동 2307,37.66957431,126.746417,http://place.map.kakao.com/1917220238
221,부산역,부산 동구 초량동 1187-21,35.11510117,129.0414135,http://place.map.kakao.com/8329752
222,행신역,경기 고양시 덕양구 강매동 613-1,37.61196662,126.8342796,http://place.map.kakao.com/8671080
223,잠실대교북단교차로,서울 광진구 자양동,37.53246904,127.0853653,http://place.map.kakao.com/8529987
224,동작대교남단교차로,서울 동작구 동작동 316-3,37.50529155,126.9802667,http://place.map.kakao.com/7852339
225,동호대교,서울 성동구 옥수동,37.53589297,127.0211307,http://place.map.kakao.com/7846269
226,노들섬,서울 용산구 이촌동 302-146,37.51766554,126.9580384,http://place.map.kakao.com/8252248
227,여의도한강공원,서울 영등포구 여의도동 85,37.5263886,126.9351293,http://place.map.kakao.com/10952963
228,서울아산병원 신관주차장,서울 송파구 풍납동 388-20,37.52732692,127.1104881,http://place.map.kakao.com/17579039
229,광화문역 5호선,서울 종로구 세종로 186,37.57164771,126.9764231,http://place.map.kakao.com/21160840
230,쁘띠프랑스,경기 가평군 청평면 고성리 616,37.71557482,127.4908922,http://place.map.kakao.com/7920064
231,장사도해상공원 사무실,경남 거제시 거제면 남동리 4-1,34.84900669,128.5909878,http://place.map.kakao.com/24954784
232,용인대장금테마파크,경기 용인시 처인구 백암면 용천리 778-1,37.12119169,127.3375794,http://place.map.kakao.com/11344902
233,석산,경북 포항시 북구 죽도동 46-1,36.03248719,129.3645293,http://place.map.kakao.com/18758571
234,소령원,경기 파주시 광탄면 영장리 267,37.77808824,126.9016215,http://place.map.kakao.com/10565405
235,낙안읍성민속마을,전남 순천시 낙안면 남내리 438-1,34.90741636,127.3398757,http://place.map.kakao.com/8234854
236,남산서울타워,서울 용산구 용산동2가 산 1-3,37.55127974,126.988217,http://place.map.kakao.com/1913983226
237,장사도해상공원,경남 통영시 한산면 장사도길 95,34.71386,128.558883,https://place.map.kakao.com/12937390
238,장암저수지,경기 포천시 이동면 장암리,36.799731,127.918751,https://place.map.kakao.com/8060236
239,전주향교,전북 전주시 완산구 교동 26-3,35.81285365,127.1571474,http://place.map.kakao.com/8064969
240,화성행궁,경기 수원시 팔달구 남창동 6-2,37.2819145,127.0140412,http://place.map.kakao.com/8175657
241,제주민속촌,제주특별자치도 서귀포시 표선면 표선리 40-1,33.32239595,126.8422973,http://place.map.kakao.com/8063566
242,광한루,전북 남원시 천거동 78,35.40391878,127.3797814,http://place.map.kakao.com/12772871
243,장산숲,경남 고성군 마암면 장산리 230-2,35.0586763,128.3261475,http://place.map.kakao.com/26856101
244,서동요테마파크,충남 부여군 충화면 가화리 281-3,36.14429091,126.8238118,http://place.map.kakao.com/24883142
245,부안영상테마파크(휴업중),전북 부안군 변산면 격포리 371-114,35.6217961,126.4853665,http://place.map.kakao.com/17151014
246,여의도한강공원,서울 영등포구 여의도동 85,37.5263886,126.9351293,http://place.map.kakao.com/10952963
247,구드래조각공원,충남 부여군 부여읍 구교리 17-4,36.28741586,126.9070878,http://place.map.kakao.com/8191906
248,서울랜드,경기 과천시 막계동 81-3,37.43379106,127.0189733,http://place.map.kakao.com/8360993
249,아침고요수목원,경기 가평군 상면 행현리 623-3,37.74300402,127.3516612,http://place.map.kakao.com/25855305
250,창덕궁,서울 종로구 와룡동 2-71,37.58187065,126.9916449,http://place.map.kakao.com/10771162
251,보라매공원,서울 동작구 신대방동 722,37.49328308,126.9205176,http://place.map.kakao.com/11338178
252,이화동 벽화마을,서울 종로구 이화동,37.57731173,127.0066565,http://place.map.kakao.com/25039734
253,대둔산도립공원,충남 논산시 벌곡면 수락리,36.14039125,127.3092227,http://place.map.kakao.com/15145282
254,낙산공원,서울 종로구 동숭동 산 2-10,37.58056967,127.0075218,http://place.map.kakao.com/8253524
255,보정동카페거리,경기 용인시 기흥구 보정동 1344,37.32162865,127.1101005,http://place.map.kakao.com/25036337
256,CJ블로썸파크,경기 수원시 영통구 이의동 1356,37.28699688,127.0421805,http://place.map.kakao.com/27229737
257,제부도 워터워크,경기 화성시 서신면 송교리 377-46,37.1740899,126.6558211,http://place.map.kakao.com/420560217
258,지혜의숲,경기 파주시 문발동 524-3,37.70835383,126.6870602,http://place.map.kakao.com/25491504
259,포천한탄강하늘다리,경기 포천시 영북면 대회산리 377,38.08398141,127.2192124,http://place.map.kakao.com/680628309
260,에버랜드,경기 용인시 처인구 포곡읍 가실리 104-32,37.29412626,127.2007462,http://place.map.kakao.com/784414359
261,창덕궁,서울 종로구 와룡동 2-71,37.58187065,126.9916449,http://place.map.kakao.com/10771162
262,경복궁,서울 종로구 세종로 1-91,37.57760878,126.9768967,http://place.map.kakao.com/18619553
263,한국민속촌,경기 용인시 기흥구 보라동 107-1,37.25960982,127.1197996,http://place.map.kakao.com/8135083
264,용추계곡,경기 가평군 가평읍 승안리 산 114,37.87303372,127.4443177,http://place.map.kakao.com/8026523
265,안동하회마을,경북 안동시 풍천면 하회리 1176-1,36.53898283,128.5181412,http://place.map.kakao.com/7999373
266,학원농장,전북 고창군 공음면 선동리 산 119-22,35.37662943,126.5419301,http://place.map.kakao.com/8124918
267,문경새재도립공원,경북 문경시 문경읍 상초리 288-1,36.76190759,128.0766857,http://place.map.kakao.com/11373883
268,미리내성지,경기 안성시 양성면 미산리 산 110-1,37.14758825,127.259162,http://place.map.kakao.com/11421348
269,주문진방사제,강원 강릉시 주문진읍 교항리,37.87985546,128.8342043,http://place.map.kakao.com/1873746459
270,포천한탄강하늘다리,경기 포천시 영북면 대회산리 377,38.08398141,127.2192124,http://place.map.kakao.com/680628309
271,한미서점,인천 동구 금곡동 14-5,37.47269445,126.6365679,http://place.map.kakao.com/10932171
272,중앙고등학교,서울 종로구 계동 1,37.58402539,126.9868442,http://place.map.kakao.com/12447901
273,와이엔,서울 종로구 화동 126,37.57917759,126.9832903,http://place.map.kakao.com/1870696527
274,청라호수공원,인천 서구 경서동 627-1,37.53248528,126.6343637,http://place.map.kakao.com/18475105
275,운현궁,서울 종로구 운니동 114-10,37.57622641,126.9870856,http://place.map.kakao.com/8465462
276,만휴정,경북 안동시 길안면 묵계리 1081,36.41044594,128.9098562,http://place.map.kakao.com/8349717
277,BBQ 대청점,서울 강남구 일원동 687-2,37.48939608,127.0821864,http://place.map.kakao.com/18904237
278,건국대학교 일감호,서울 광진구 화양동 393-1,37.54074276,127.0763996,http://place.map.kakao.com/17574291
279,서도역 (폐역),전북 남원시 사매면 서도리 130-1,35.49193498,127.3309285,http://place.map.kakao.com/7939137
280,합천영상테마파크,경남 합천군 용주면 가호리 256,35.54906949,128.0715305,http://place.map.kakao.com/11199854
281,계명대학교 성서캠퍼스 계명한학촌,대구 달서구 호산동 산 2-1,35.85716445,128.486217,http://place.map.kakao.com/17561984
282,고산정,충북 괴산군 괴산읍 제월리,36.81624764,127.8331893,http://place.map.kakao.com/25177541
283,운보의집 분재공원,충북 청주시 청원구 내수읍 형동리 393-1,36.69223114,127.5651097,http://place.map.kakao.com/11289362
284,낙안읍성민속마을,전남 순천시 낙안면 남내리 438-1,34.90741636,127.3398757,http://place.map.kakao.com/8234854
285,학인당,전북 전주시 완산구 교동 105-4,35.81208158,127.1519975,http://place.map.kakao.com/10862964
286,최참판댁,경남 하동군 악양면 평사리 483,35.15559061,127.6881004,http://place.map.kakao.com/10889052
287,경주배동삼릉,경북 경주시 배동 73-1,35.79749335,129.2090785,http://place.map.kakao.com/7894484
288,함양일두고택,경남 함양군 지곡면 개평리 262-1,35.56632692,127.7681729,http://place.map.kakao.com/12765324
289,부안영상테마파크(휴업중),전북 부안군 변산면 격포리 371-114,35.6217961,126.4853665,http://place.map.kakao.com/17151014
290,천은사,전남 구례군 광의면 방광리 70,35.27387997,127.4763203,http://place.map.kakao.com/25624852
291,용인대장금테마파크,경기 용인시 처인구 백암면 용천리 778-1,37.12119169,127.3375794,http://place.map.kakao.com/11344902
292,고창읍성,전북 고창군 고창읍 읍내리 산 9,35.42973105,126.7048689,http://place.map.kakao.com/25050078
293,해미읍성,충남 서산시 해미면 읍내리 40-1,36.71265505,126.5482159,http://place.map.kakao.com/8151963
294,논산선샤인랜드,충남 논산시 연무읍 황화정리 859-44,36.1024918,127.1066156,http://place.map.kakao.com/27515366
295,용답역 2호선 2번출구,서울 성동구 사근동,37.5626149,127.0504711,http://place.map.kakao.com/8532102
296,황매산,경남 산청군 차황면 법평리,35.49428597,127.9743605,http://place.map.kakao.com/10966955
297,청도프로방스포토랜드,경북 청도군 화양읍 삼신리 879,35.68398097,128.7187823,http://place.map.kakao.com/18128123
298,레전드스포츠히어로즈,서울 서초구 서초동 1317-31,37.4985941,127.0258337,http://place.map.kakao.com/1074542997
299,오이도선사유적공원,경기 시흥시 정왕동 924-13,37.34303702,126.6961663,http://place.map.kakao.com/1072351406
300,명암유원지,충북 청주시 상당구 명암동 산 44-6,36.64481762,127.5125585,http://place.map.kakao.com/7869218
301,용마랜드,서울 중랑구 망우동 산 69-1,37.59479363,127.1054413,http://place.map.kakao.com/1210528477
302,소나타오브라이트,강원 원주시 지정면 월송리 1061-24,37.43575423,127.8207774,http://place.map.kakao.com/1209676984
303,쇠소깍,제주특별자치도 서귀포시 남원읍 하례리 1889,33.25235487,126.624332,http://place.map.kakao.com/7962003
304,제주거울미로 이상한나라의 앨리스,제주특별자치도 서귀포시 안덕면 서광리 717-3,33.2889975,126.3216275,http://place.map.kakao.com/12520358
305,화전동벽화마을,경기 고양시 덕양구 화전동 571-4,37.60481117,126.8704533,http://place.map.kakao.com/278134949
306,청도읍성,경북 청도군 화양읍 동상리 45-2,35.65059765,128.7066902,http://place.map.kakao.com/12736409
307,마비정벽화마을,대구 달성군 화원읍 본리리 1350,35.77876851,128.5416123,http://place.map.kakao.com/18281173
308,하늘정원,경북 청도군 화양읍 삼신리 880,35.68328933,128.7182462,http://place.map.kakao.com/8626902
309,캠프통아일랜드,경기 가평군 청평면 고성리 761-1,37.7103655,127.4843437,http://place.map.kakao.com/27306007
310,메이즈랜드,제주특별자치도 제주시 구좌읍 평대리 3322,33.48825545,126.8008719,http://place.map.kakao.com/13095815
311,다람골,경기 가평군 가평읍 달전리 68,37.80905943,127.5248739,http://place.map.kakao.com/14551956
312,김해가야테마파크,경남 김해시 어방동 993,35.25059728,128.8930642,http://place.map.kakao.com/25023277
313,아산그린타워,충남 아산시 배미동 15-3,36.79867708,126.9788898,http://place.map.kakao.com/23278969
314,워터킹덤 송파파크하비오점,서울 송파구 문정동 618,37.48021174,127.1247863,http://place.map.kakao.com/2141690292
315,일출랜드 미천굴,제주특별자치도 서귀포시 성산읍 삼달리 1010,33.38346164,126.8426643,http://place.map.kakao.com/17574894
316,퍼스트가든,경기 파주시 상지석동 1021-3,37.73207316,126.7946254,http://place.map.kakao.com/560886206
317,의림지,충북 제천시 모산동 241,37.17317401,128.2105635,http://place.map.kakao.com/12777479
318,행남해안산책로,경북 울릉군 울릉읍 도동리,37.48952623,130.9072707,http://place.map.kakao.com/10909319
319,천장호출렁다리 관리사무소,충남 청양군 정산면 천장리 112-6,36.41456495,126.9218146,http://place.map.kakao.com/13142735
320,거북선숯불풍천장어,전북 고창군 상하면 자룡리 585-5,35.43297445,126.4336403,http://place.map.kakao.com/18854970
321,안산대부광산퇴적암층,경기 안산시 단원구 선감동 산 147-1,37.1986958,126.6484691,http://place.map.kakao.com/25118906
322,수미정알찬꽃게,충남 태안군 안면읍 승언리 773-3,36.53330123,126.3500406,http://place.map.kakao.com/24726724
323,보성녹차밭,전남 보성군 보성읍 봉산리 1288-1,34.7159598,127.0779018,http://place.map.kakao.com/7891228
324,제암산자연휴양림,전남 보성군 웅치면 대산리 산 113-1,34.69962469,126.9850208,http://place.map.kakao.com/8066684
325,윤제림,전남 보성군 겸백면 수남리,34.82286333,127.2034705,http://place.map.kakao.com/890211371
326,영월 선돌전망대,강원 영월군 영월읍 방절리 769-4,37.20244833,128.4327805,https://place.map.kakao.com/27002081
327,진안 오지캠핑,전북 진안군 진안읍 가막리 73-3,35.82734082,127.5151295,https://place.map.kakao.com/1665238266
328,소복갈비,충남 예산군 예산읍 예산리 210-10,36.67957178,126.8502279,http://place.map.kakao.com/7959806
329,녹두꽃쌍화탕,전북 정읍시 수성동 630-2,35.56843419,126.8545433,http://place.map.kakao.com/244301786
330,정읍 녹두꽃 쌍화탕,전북 정읍시 정인1길 25-2,35.568436,126.8545441,https://place.map.kakao.com/244301786
331,사승봉도,인천 옹진군 자월면 승봉리,37.14595502,126.27468,http://place.map.kakao.com/14864837
332,고창 하늘마을펜션,전북 고창군 부안면 질마재로 272-80,35.52329363,126.6359632,https://place.map.kakao.com/8123494
333,삼례문화예술촌,전북 완주군 삼례읍 후정리 247-1,35.90608091,127.0663739,http://place.map.kakao.com/20597238
334,몽상드애월,제주특별자치도 제주시 애월읍 애월리 2546,33.46292658,126.3092436,http://place.map.kakao.com/27114938
335,동대문디자인플라자,서울 중구 을지로7가 2-1,37.56718431,127.009911,http://place.map.kakao.com/25022134
336,한서 해양스포츠교육원,충남 태안군 남면 신온리 833,36.59454865,126.2996501,http://place.map.kakao.com/26428010
337,성이시돌목장,제주특별자치도 제주시 한림읍 금악리 142,33.34776988,126.3273211,http://place.map.kakao.com/11131088
338,바그다드,제주특별자치도 제주시 이도2동 1188-16,33.49749807,126.5296454,http://place.map.kakao.com/8315618
339,함덕해수욕장,제주특별자치도 제주시 조천읍 함덕리 1004-10,33.54306157,126.6692389,http://place.map.kakao.com/8148451
340,쌀다방,제주특별자치도 제주시 삼도이동 967,33.51239671,126.5213633,http://place.map.kakao.com/1943070341
341,송악산,제주특별자치도 서귀포시 대정읍 상모리 산 2,33.19921553,126.2901175,http://place.map.kakao.com/7956367
342,제주시민속오일시장,제주특별자치도 제주시 도두일동 1212,33.49724097,126.4754837,http://place.map.kakao.com/12140282
343,한담해안산책로,제주특별자치도 제주시 애월읍 곽지리 1359,33.45932345,126.3104683,http://place.map.kakao.com/23705150
344,한라수목원,제주특별자치도 제주시 연동 2484,33.46978393,126.4932661,http://place.map.kakao.com/8641180
345,수월봉,제주특별자치도 제주시 한경면 고산리 3763,33.2946169,126.1631723,http://place.map.kakao.com/25294439
346,대한불교조계종천왕사,제주특별자치도 제주시 노형동 산 20-17,33.40777553,126.4950368,http://place.map.kakao.com/9496187
347,효돈천,제주특별자치도 서귀포시 남원읍 하례리,33.30149918,126.601784,http://place.map.kakao.com/8164202
348,동백동산,제주특별자치도 제주시 조천읍 선흘리 산 12,33.5164508,126.7160285,http://place.map.kakao.com/8335690
349,갯깍주상절리,제주특별자치도 서귀포시 색달동 2101,33.24143498,126.3978747,http://place.map.kakao.com/26971695
350,궷물오름,제주특별자치도 제주시 애월읍 유수암리,33.39674209,126.4059466,http://place.map.kakao.com/8217224
351,곽지해수욕장,제주특별자치도 제주시 애월읍 곽지리 1565,33.45065751,126.3046732,http://place.map.kakao.com/25022153
352,신창풍차해안도로,제주특별자치도 제주시 한경면 신창리 1322-1,33.34308103,126.174206,http://place.map.kakao.com/26239274
353,금오름,제주특별자치도 제주시 한림읍 금악리 산 1-1,33.35455001,126.3057176,http://place.map.kakao.com/25189061
354,동문재래시장,제주특별자치도 제주시 이도일동 1436-7,33.51158875,126.5260174,http://place.map.kakao.com/8265854
355,사려니숲길,제주특별자치도 제주시 조천읍 교래리 산 137-1,33.42203283,126.6264973,http://place.map.kakao.com/26319779
356,금능해수욕장,제주특별자치도 제주시 한림읍 금능리 2026,33.39044882,126.2358899,http://place.map.kakao.com/13723603
357,백약이오름,제주특별자치도 서귀포시 표선면 성읍리 산 1,33.43680941,126.7897582,http://place.map.kakao.com/25248461
358,용두암,제주특별자치도 제주시 용담2동 483,33.51611062,126.5119571,http://place.map.kakao.com/11540370
359,금오름,제주특별자치도 제주시 한림읍 금악리 산 1-1,33.35455001,126.3057176,http://place.map.kakao.com/25189061
360,수월봉지질트레일,제주특별자치도 제주시 한경면 고산리 3760,33.29480821,126.1633315,http://place.map.kakao.com/416160023
361,왕복짚라인제주,제주특별자치도 제주시 해안동 2109,33.46498618,126.4536991,http://place.map.kakao.com/924465523
362,우도,제주특별자치도 제주시 우도면 연평리,33.50441997,126.9555823,http://place.map.kakao.com/8025182
363,한화아쿠아플라넷 제주,제주특별자치도 서귀포시 성산읍 고성리 127-1,33.43305363,126.9278792,http://place.map.kakao.com/23150855
364,신양섭지해수욕장,제주특별자치도 서귀포시 성산읍 고성리 186-2,33.43510307,126.9234728,http://place.map.kakao.com/10607235
365,중문서핑스쿨,제주특별자치도 서귀포시 중문동 1567-1,33.25348688,126.4251049,http://place.map.kakao.com/13956183
366,중문카트체험장,제주특별자치도 서귀포시 상예동 1759-1,33.26413986,126.3945894,http://place.map.kakao.com/9461077
367,카멜리아힐,제주특별자치도 서귀포시 안덕면 상창리 271,33.28963443,126.3700095,http://place.map.kakao.com/9461977
368,한라산(영실코스),제주특별자치도 제주시 오등동 산 182,33.38853132,126.5427913,https://place.map.kakao.com/27168439
369,오라동 메밀꽃밭,제주특별자치도 제주시 오라이동 산 76,33.42715892,126.5057836,https://place.map.kakao.com/2002781822
370,비양도,제주특별자치도 제주시 한림읍 협재리,33.41027771,126.2273484,http://place.map.kakao.com/7920396
371,더럭초등학교,제주특별자치도 제주시 애월읍 하가리 1580-1,33.45362396,126.3454606,http://place.map.kakao.com/8267885
372,유수암마을,제주특별자치도 제주시 애월읍 유수암리 1892-1,33.4413234,126.4027651,http://place.map.kakao.com/19304753
373,탄천종합운동장 빙상장,경기 성남시 분당구 야탑동 486,37.41006786,127.1194966,http://place.map.kakao.com/14967671
374,에버랜드,경기 용인시 처인구 포곡읍 가실리 104-32,37.29412626,127.2007462,http://place.map.kakao.com/784414359
375,청계동 하이디 농장,경기 의왕시 원터윗길 21-10,37.39604785,127.0242269,https://place.map.kakao.com/24958913
376,하이디농장,경기 의왕시 청계동 207-1,37.39588242,127.024249,http://place.map.kakao.com/24958913
377,경주 펜션600,경북 경주시 장골길 61,35.81513795,129.2568264,https://place.map.kakao.com/8632816
378,알펜시아스키점프센터 스키점프대K125,강원 평창군 대관령면 수하리 240-19,37.66239203,128.6804491,http://place.map.kakao.com/13605515
379,사동항,경북 울진군 기성면 사동리 289-11,36.82585851,129.4466355,http://place.map.kakao.com/11055759
380,대촌마을,강원 정선군 정선읍 덕우리 408-8,37.36088096,128.7117565,http://place.map.kakao.com/24635712
381,경복궁,서울 종로구 세종로 1-91,37.57760878,126.9768967,http://place.map.kakao.com/18619553
382,창덕궁,서울 종로구 와룡동 2-71,37.58187065,126.9916449,http://place.map.kakao.com/10771162
383,창경궁,서울 종로구 와룡동 2-1,37.57941654,126.9951999,http://place.map.kakao.com/11156260
384,운현궁,서울 종로구 운니동 114-10,37.57622641,126.9870856,http://place.map.kakao.com/8465462
385,우미닭갈비 본점,강원 춘천시 조양동 50-4,37.87954921,127.7280534,http://place.map.kakao.com/8021178
386,춘천 중도,강원 춘천시 중도동,37.90199888,127.715954,https://place.map.kakao.com/25363677
387,마포청학동부침개,서울 마포구 공덕동 256-30,37.54464622,126.9537346,http://place.map.kakao.com/25037317
388,국제통운 신선대부두,부산 남구 용당동 123,35.1107043,129.097508,http://place.map.kakao.com/8689075
389,부산항대교,부산 남구 감만동,35.1060736,129.0653247,http://place.map.kakao.com/24810448
390,흰여울문화마을,부산 영도구 영선동4가 1044-6,35.07791483,129.0452814,http://place.map.kakao.com/22875776
391,신원문고 부산점,부산 동구 초량동 1187-21,35.11508304,129.0414196,http://place.map.kakao.com/9174953
392,BIFF광장,부산 중구 남포동3가 15-1,35.09886787,129.0290456,http://place.map.kakao.com/9650856
393,수영하수처리장,부산 동래구 안락동 1063-13,35.18865117,129.1132314,http://place.map.kakao.com/19808737
394,한국교통안전공단 해운대검사소,부산 해운대구 재송동 801-17,35.18404189,129.1197725,http://place.map.kakao.com/12803338
395,부산대역 부산1호선,부산 금정구 장전동 655-9,35.22964859,129.0894254,http://place.map.kakao.com/21160490
396,김밥천국 좌수영점,부산 수영구 수영동 439-2,35.16907691,129.1211398,http://place.map.kakao.com/15390933
397,원조순희네육회빈대떡,서울 종로구 종로5가 138-9,37.57060491,127.0007335,http://place.map.kakao.com/18755777
398,고향집,서울 강남구 논현동 115-5,37.51672649,127.0372193,http://place.map.kakao.com/8188651
399,세종대왕기념관,서울 동대문구 청량리동 산 1-157,37.59084039,127.0435878,http://place.map.kakao.com/8448294
400,노량진수산물도매시장,서울 동작구 노량진동 13-6,37.51473685,126.9368293,http://place.map.kakao.com/8205369
401,세종대왕 기념관,서울 동대문구 회기로 56,37.59099289,127.0427032,https://place.map.kakao.com/8448294
402,헤르지아,서울 중구 예장동 8-98,37.55682598,126.9854773,http://place.map.kakao.com/10020824
403,쉼표,제주특별자치도 제주시 한림읍 협재리 1732,33.39520625,126.2418759,http://place.map.kakao.com/20465427
404,서룡,서울 마포구 상암동 1653,37.57719346,126.8913718,http://place.map.kakao.com/12410380
405,평택문화원 웃다리문화촌,경기 평택시 서탄면 금각리 341-3,37.06878654,127.0082176,http://place.map.kakao.com/9998751
406,놀맨,제주특별자치도 제주시 애월읍 애월리 2530,33.46246682,126.310224,http://place.map.kakao.com/21531714
407,빈해원,전북 군산시 장미동 21-5,35.98883478,126.7139832,http://place.map.kakao.com/11053604
408,전통술박물관산사원 본원,경기 포천시 화현면 화현리 512,37.90567695,127.3090752,http://place.map.kakao.com/26984108
409,한국민속촌,경기 용인시 기흥구 보라동 107-1,37.25960982,127.1197996,http://place.map.kakao.com/8135083
410,중동호떡,전북 군산시 경암동 365,35.98245945,126.7224201,http://place.map.kakao.com/9423749
411,합천영상테마파크,경남 합천군 용주면 가호리 256,35.54906949,128.0715305,http://place.map.kakao.com/11199854
412,청관,인천 중구 북성동3가 5-3,37.47548862,126.6197232,http://place.map.kakao.com/8086891
413,어반소스,서울 성동구 성수동2가 301-16,37.54466665,127.0513326,http://place.map.kakao.com/1666343556
414,소금산출렁다리,강원 원주시 지정면 간현리 산 116-1,37.36866589,127.8246812,http://place.map.kakao.com/8114571
415,의좋은형제공원,충남 예산군 대흥면 상중리,36.60678389,126.7917378,http://place.map.kakao.com/23278944
416,감나무집기사식당,서울 마포구 연남동 515-19,37.56190789,126.9218991,http://place.map.kakao.com/10114383
417,모평권역농촌마을,전남 함평군 해보면 산내리 476-1,35.17572147,126.5542484,http://place.map.kakao.com/15683274
418,경기도사격테마파크,경기 화성시 양감면 사창리 810-2,37.0933865,126.9574051,http://place.map.kakao.com/8690568
419,궁평항,경기 화성시 서신면 궁평리 689,37.11572084,126.682117,http://place.map.kakao.com/14973250
420,서유숙펜션,충북 충주시 소태면 복탄리 839-4,37.10171167,127.8269563,http://place.map.kakao.com/8226178
421,포항크루즈,경북 포항시 남구 송도동 222,36.02372768,129.3775593,http://place.map.kakao.com/23149048
422,포항운하관,경북 포항시 남구 송도동 222,36.02373822,129.3775729,http://place.map.kakao.com/25538688
423,호미곶해맞이광장 새천년기념관,경북 포항시 남구 호미곶면 대보리 989-2,36.07684813,129.5660751,http://place.map.kakao.com/23864226
424,장생포고래문화마을,울산 남구 매암동 192-2,35.50570282,129.3817029,http://place.map.kakao.com/26435058
425,스테이바이더씨,경기 화성시 서신면 제부리 190-119,37.1661212,126.6176725,http://place.map.kakao.com/1436563088
426,돌섬산장펜션,전북 완주군 동상면 신월리 795-2,35.94527672,127.3173938,http://place.map.kakao.com/8918603
427,제부도 STAY BY THE SEA,경기 화성시 서신면 제부리 190-119,37.16613085,126.6177875,https://place.map.kakao.com/1436563088
428,곰막,제주특별자치도 제주시 구좌읍 동복리 667-1,33.55686867,126.7205096,http://place.map.kakao.com/18421685
429,몬스터살롱,제주특별자치도 제주시 애월읍 곽지리 1669-1,33.44827726,126.3072389,http://place.map.kakao.com/24925007
430,돌섬산장펜션,전북 완주군 동상면 신월리 795-2,35.94527672,127.3173938,http://place.map.kakao.com/8918603
431,마린파크,제주특별자치도 서귀포시 안덕면 화순리 823,33.24081399,126.3347422,http://place.map.kakao.com/9720913
432,엉또폭포,제주특별자치도 서귀포시 강정동 5628,33.26853216,126.4999655,http://place.map.kakao.com/8008273
433,하도해변,제주특별자치도 제주시 구좌읍 하도리,33.51305677,126.89923,http://place.map.kakao.com/11340501
434,곰막,제주특별자치도 제주시 구좌읍 동복리 667-1,33.55686867,126.7205096,http://place.map.kakao.com/18421685
435,제주 마린파크,제주특별자치도 서귀포시 안덕면 화순중앙로 132,33.24080906,126.3347127,https://place.map.kakao.com/9720913
436,제주현대미술관,제주특별자치도 제주시 한경면 저지리 2114-63,33.33966276,126.265585,http://place.map.kakao.com/15786539
437,대관령하늘목장,강원 평창군 대관령면 횡계리 산 1-134,37.71170076,128.7321616,http://place.map.kakao.com/25676641
438,공새미59,제주특별자치도 서귀포시 남원읍 신례리 60-3,33.26426702,126.640426,http://place.map.kakao.com/25854301
439,카페서연의집,제주특별자치도 서귀포시 남원읍 위미리 2975,33.26940687,126.6555871,http://place.map.kakao.com/19639423
440,등경돌,제주특별자치도 서귀포시 성산읍 성산리 187,33.4626203,126.9345865,http://place.map.kakao.com/8954830
441,휴애리자연생활공원,제주특별자치도 서귀포시 남원읍 신례리 2081,33.30941046,126.6354098,http://place.map.kakao.com/27581976
442,그림하우스카페,부산 해운대구 송정동 793-1,35.17295765,129.1975167,http://place.map.kakao.com/26961313
443,흑돼지가있는풍경 본점,제주특별자치도 제주시 노형동 668,33.47537567,126.4806462,http://place.map.kakao.com/9620057
444,전주한옥마을,전북 전주시 완산구 풍남동3가 64-1,35.81482431,127.1525571,http://place.map.kakao.com/10731896
445,안면카트체험장,충남 태안군 안면읍 창기리 1262-219,36.58359101,126.3195711,http://place.map.kakao.com/25974462
446,해돋이공원,인천 연수구 송도동 5-1,37.38771065,126.6544857,http://place.map.kakao.com/8148470
447,서귀포매일올레시장,제주특별자치도 서귀포시 서귀동 340,33.2499151,126.5638487,http://place.map.kakao.com/7938166
448,섭지코지,제주특별자치도 서귀포시 성산읍 고성리 87,33.42393807,126.9306092,http://place.map.kakao.com/8413659
449,대관령하늘목장,강원 평창군 대관령면 횡계리 산 1-134,37.71170076,128.7321616,http://place.map.kakao.com/25676641
450,감천문화마을,부산 사하구 감천동 10-63,35.09587737,129.0094892,http://place.map.kakao.com/21362956
451,대부도펜션시티,경기 안산시 단원구 대부동동 1567-77,37.23620234,126.5895455,http://place.map.kakao.com/17507481
452,에코랜드테마파크,제주특별자치도 제주시 조천읍 교래리 385-1,33.44833873,126.6702787,http://place.map.kakao.com/21500227
453,마암터 마을,강원 강릉시 연곡면 신왕리 236,37.84585941,128.788439,http://place.map.kakao.com/8295526
454,금천마을,경남 남해군 삼동면 동천리 1489,34.82200267,128.0429745,http://place.map.kakao.com/8216608
455,회양과국수군,제주특별자치도 제주시 우도면 연평리 2473-2,33.50372931,126.9423495,http://place.map.kakao.com/18333590
456,용눈이오름,제주특별자치도 제주시 구좌읍 종달리 산 38,33.45969968,126.8325101,http://place.map.kakao.com/10626439
457,돋음볕마을,전북 고창군 부안면 송현리,35.54032884,126.610896,http://place.map.kakao.com/12706212
458,백미리마을,경기 화성시 서신면 백미리 328-2,37.14352946,126.6801592,http://place.map.kakao.com/18552661
459,보성강골마을,전남 보성군 득량면 오봉리 402-3,34.76261237,127.1857804,http://place.map.kakao.com/11625156
460,안동가송마을,경북 안동시 도산면 가송리 727,36.77043415,128.8690439,http://place.map.kakao.com/8413183
461,보릿고개마을,경기 양평군 용문면 연수리 141-2,37.52667877,127.5567913,http://place.map.kakao.com/8005426
462,회산,전남 무안군 일로읍 복룡리,34.86290644,126.5332222,http://place.map.kakao.com/25399538
463,소율마을,전남 여수시 돌산읍 율림리,34.60238179,127.7943781,http://place.map.kakao.com/12697813
464,호음1리마을회관,충남 예산군 고덕면 호음리 250-1,36.77993723,126.7228066,http://place.map.kakao.com/23984471
465,석모1리마을회관,인천 강화군 삼산면 석모리 1391,37.70254216,126.326428,http://place.map.kakao.com/10491765
466,백복령눈꽃마을펜션,강원 정선군 임계면 직원리 526-1,37.52681577,128.9402066,http://place.map.kakao.com/20222717
467,논산 이메골,충남 논산시 양촌면 양촌리,36.11487027,127.2339058,http://place.map.kakao.com/25342115
468,부안운호향토산업마을,전북 부안군 진서면 운호리 129,35.59821476,126.5569897,http://place.map.kakao.com/26152818
469,성주 한개마을,경북 성주군 월항면 대산리,35.92854287,128.3259139,http://place.map.kakao.com/8437714
470,고성학동마을옛담장,경남 고성군 하일면 학림리 917-1,34.94895497,128.1923399,http://place.map.kakao.com/25049159
471,충북 아산 외암리민속마을,충남 아산시 송악면 외암민속길 42-7,36.72996319,127.0179677,https://place.map.kakao.com/17112656
472,화성 전곡리 바다마을,경기 화성시 서신면 전곡리 861,37.18654915,126.6531834,http://place.map.kakao.com/16544473
473,비봉내체험마을,경남 사천시 곤양면 서정리 233-2,35.07111661,127.9584415,http://place.map.kakao.com/26058355
474,선학동유채마을,전남 장흥군 회진면 회진리,34.46043823,126.9378821,http://place.map.kakao.com/12630934
475,홍천삼생마을,강원 홍천군 서석면 검산리,37.73772702,128.249861,http://place.map.kakao.com/8174948
476,유계,경남 합천군 초계면 유하리,35.54210614,128.2440735,http://place.map.kakao.com/25338734
477,추동마을,전북 진안군 동향면 능금리 1317-5,35.85658062,127.5827971,http://place.map.kakao.com/177099137
478,사기막,충북 괴산군 청천면 사기막리,36.70170592,127.8427121,http://place.map.kakao.com/25261689
479,문경 고요전원마을,경북 문경시 문경읍 고요리,36.7385566,128.1560769,http://place.map.kakao.com/26481311
480,바다마을사람들,강원 양양군 현북면 하광정리 74-6,38.02088324,128.7245719,http://place.map.kakao.com/14558241
481,우도,제주특별자치도 제주시 우도면 연평리,33.50441997,126.9555823,http://place.map.kakao.com/8025182
482,소석,전북 남원시 운봉읍 화수리,35.44386583,127.5554881,http://place.map.kakao.com/25288459
483,진도 소포마을,전남 진도군 지산면 소포리,34.48450753,126.2027045,http://place.map.kakao.com/25289218
484,방촌문화마을,전남 장흥군 관산읍 방촌리 621-4,34.55107033,126.9446483,http://place.map.kakao.com/13128299
485,창포,경북 영덕군 영덕읍 창포리,36.41097685,129.4283905,http://place.map.kakao.com/25373099
486,휴랜드관광농원,경기 포천시 이동면 도평리 509-1,38.07823268,127.3890916,http://place.map.kakao.com/1706182719
487,동화힐링캠프,경기 파주시 파평면 두포리 121-1,37.89224589,126.8410134,http://place.map.kakao.com/24710973
488,약사계곡 유원지,경기 포천시 이동면 도평리 산 276-4,38.07743307,127.3903297,http://place.map.kakao.com/17030505
489,물향기수목원,경기 오산시 수청동 332-4,37.1663085,127.0595311,http://place.map.kakao.com/11462042
490,낙산둘레길,서울 종로구 낙산길 41,37.58059261,127.0065315,https://place.map.kakao.com/26563972
491,강릉외갓집펜션,강원 강릉시 왕산면 왕산리 170-4,37.65247649,128.78829,http://place.map.kakao.com/14103552
492,엘도라도리조트,전남 신안군 증도면 우전리 233-42,34.96368691,126.1350632,http://place.map.kakao.com/20381562
493,달천펜션,충북 청주시 상당구 미원면 운암리 30-2,36.60507383,127.6954155,http://place.map.kakao.com/17135549
494,동탄호수공원,경기 화성시 송동 54-1,37.16783439,127.1045221,http://place.map.kakao.com/27305931
495,인제원대리 자작나무숲,강원 인제군 인제읍 원대리 산 75-22,37.98819079,128.1989876,http://place.map.kakao.com/27301455
496,북촌문화센터,서울 종로구 계동 105,37.57908069,126.9864285,http://place.map.kakao.com/25027484
497,통인시장,서울 종로구 통인동 13-1,37.58077513,126.9700261,http://place.map.kakao.com/8128836
498,가람나무펜션,경기 파주시 송촌동 198-10,37.75459943,126.6887039,http://place.map.kakao.com/20886386
499,부평깡통시장,부산 중구 부평동2가 82,35.10211459,129.0258803,http://place.map.kakao.com/837490557
500,북촌 한옥마을,서울 종로구 북촌로11길 49,37.58291006,126.9834039,https://place.map.kakao.com/781129546
501,퍼스트가든,경기 파주시 상지석동 1021-3,37.73207316,126.7946254,http://place.map.kakao.com/560886206
502,대오서점,서울 종로구 누하동 33,37.57974782,126.9693065,http://place.map.kakao.com/18454377
503,보성녹차밭,전남 보성군 보성읍 봉산리 1288-1,34.7159598,127.0779018,http://place.map.kakao.com/7891228
504,곽지해수욕장,제주특별자치도 제주시 애월읍 곽지리 1565,33.45065751,126.3046732,http://place.map.kakao.com/25022153
505,함덕해수욕장,제주특별자치도 제주시 조천읍 함덕리 1004-10,33.54306157,126.6692389,http://place.map.kakao.com/8148451
